数据格式分析：
	$GNGGA,(1),(2),(3),(4),(5),(6),(7),(8),(9),M,(10),M,(11),(12)*hh(CR)(LF)
	(1) UTC 时间，格式为 hhmmss.ss；
	(2) 纬度，格式为 ddmm.mmmmm（度分格式）；
	(3) 纬度半球，N 或 S（北纬或南纬）；
	(4) 经度，格式为 dddmm.mmmmm（度分格式）；
	(5) 经度半球，E 或 W（东经或西经）；
	(6) GPS 状态，0=未定位，1=非差分定位，2=差分定位；
	(7) 正在使用的用于定位的卫星数量（00~12）
	(8) HDOP 水平精确度因子（0.5~99.9）
	(9) 海拔高度（-9999.9 到 9999.9 米）
	(10) 大地水准面高度（-9999.9 到 9999.9 米）
	(11) 差分时间（从最近一次接收到差分信号开始的秒数，非差分定位，此项为空）
	(12) 差分参考基站标号（0000 到 1023，首位 0 也将传送，非差分定位，此项为空)
	
$GNGGA, 050817.400, 4053.7349, N, 11757.3446, E, 1, 07, 4.1, 340.0, M, -3.2,M, ,0000 *5F


$GNRMC,050817.400,A,4053.7349,N,11757.3446,E,000.0,357.8,180523,,,A*70


$GNGGA,050817.600,4053.7349,N,11757.3446,E,1,07,4.1,340.0,M,-3.2,M,,0000*5D
$GNRMC,050817.600,A,4053.7349,N,11757.3446,E,000.0,357.8,180523,,,A*72


$GNGGA,050817.800,4053.7349,N,11757.3446,E,1,07,4.1,340.0,M,-3.2,M,,0000*53
$GNRMC,050817.800,A,4053.7349,N,11757.3446,E,000.0,357.8,180523,,,A*7C


$GNGGA,050818.000,4053.7349,N,11757.3446,E,1,07,4.1,340.0,M,-3.2,M,,0000*54
$GNRMC,050818.000,A,4053.7349,N,11757.3446,E,000.0,357.8,180523,,,A*7B


$GNGGA,050818.200,4053.7349,N,11757.3446,E,1,07,4.1,340.0,M,-3.2,M,,0000*56
$GNGLL,4053.7349,N,11757.3446,E,050818.200,A,A*4A
$GNGSA,A,3,17,03,19,01,24,,,,,,,,4.6,4.1,2.1*22
$GNGSA,A,3,212,210,,,,,,,,,,,4.6,4.1,2.1*2A
$GNRMC,050818.200,A,4053.7349,N,11757.3446,E,000.0,357.8,180523,,,A*79
$GNVTG,357.8,T,,M,000.0,N,000.0,K,A*1A
$GNZDA,050818.200,18,05,2023,00,00*41


$GNGGA,050818.400,4053.7349,N,11757.3446,E,1,07,4.1,340.0,M,-3.2,M,,0000*50
$GNRMC,050818.400,A,4053.7349,N,11757.3446,E,000.0,357.8,180523,,,A*7F


$GNGGA,050818.600,4053.7349,N,11757.3446,E,1,07,4.1,340.0,M,-3.2,M,,0000*52
$GNRMC,050818.600,A,4053.7349,N,11757.3446,E,000.0,357.8,180523,,,A*7D


$GNGGA,050818.800,4053.7349,N,11757.3446,E,1,07,4.1,340.0,M,-3.2,M,,0000*5C
$GNRMC,050818.800,A,4053.7349,N,11757.3446,E,000.0,357.8,180523,,,A*73


$GNGGA,050819.000,4053.7349,N,11757.3446,E,1,07,4.4,340.0,M,-3.2,M,,0000*50
$GNRMC,050819.000,A,4053.7349,N,11757.3446,E,000.0,357.8,180523,,,A*7A


$GNGGA,050819.200,4053.7349,N,11757.3446,E,1,07,4.1,340.0,M,-3.2,M,,0000*57
$GNGLL,4053.7349,N,11757.3446,E,050819.200,A,A*4B
$GNGSA,A,3,17,03,19,01,24,,,,,,,,4.6,4.1,2.1*22
$GNGSA,A,3,212,210,,,,,,,,,,,4.6,4.1,2.1*2A
$GPGSV,2,1,07,17,74,018,41,19,58,316,41,03,48,068,29,01,19,055,40*77
$GPGSV,2,2,07,24,07,298,33,11,07,243,16,21,00,064,15*4C
$BDGSV,1,1,02,210,78,276,25,212,46,292,37*6C
$GNRMC,050819.200,A,4053.7349,N,11757.3446,E,000.0,357.8,180523,,,A*78
$GNVTG,357.8,T,,M,000.0,N,000.0,K,A*1A
$GNZDA,050819.200,18,05,2023,00,00*40
$GNGGA,050819.400,4053.7349,N,11757.3446,E,1,07,4.1,34J

0,M,-3.2,M,,0000*51
$GNRMC,050819.400,A,4053.7349,N,11757.3446,E,000.0,357.8,180523,,,A*7E


$GNGGA,050819.600,4053.7349,N,11757.3446,E,1,07,4.1,340.0,M,-3.2,M,,0000*53
$GNRMC,050819.600,A,4053.7349,N,11757.3446,E,000.0,357.8,180523,,,A*7C


$GNGGA,050819.800,4053.7349,N,11757.3446,E,1,07,4.1,340.0,M,-3.2,M,,0000*5D
$GNRMC,050819.800,A,4053.7349,N,11757.3446,E,000.0,357.8,180523,,,A*72


$GNGGA,050820.000,4053.7349,N,11757.3446,E,1,07,4.1,340.0,M,-3.2,M,,0000*5F
$GNRMC,050820.000,A,4053.7349,N,11757.3446,E,000.0,357.8,180523,,,A*70


$GNGGA,050820.200,4053.7349,N,11757.3446,E,1,07,4.1,340.0,M,-3.2,M,,0000*5D
$GNGLL,4053.7349,N,11757.3446,E,050820.200,A,A*41
$GNGSA,A,3,17,03,19,01,24,,,,,,,,4.6,4.1,2.1*22
$GNGSA,A,3,212,210,,,,,,,,,,,4.6,4.1,2.1*2A
$GNRMC,050820.200,A,4053.7349,N,11757.3446,E,000.0,357.8,180523,,,A*72
$GNVTG,357.8,T,,M,000.0,N,000.0,K,A*1A
$GNZDA,050820.200,18,05,2023,00,00*4A


$GNGGA,050820.400,4053.7349,N,11757.3446,E,1,07,4.1,340.0,M,-3.2,M,,0000*5B
$GNRMC,050820.400,A,4053.7349,N,11757.3446,E,000.0,357.8,180523,,,A*74


$GNGGA,050820.600,4053.7349,N,11757.3446,E,1,07,4.1,340.0,M,-3.2,M,,0000*59
$GNRMC,050820.600,A,4053.7349,N,11757.3446,E,000.0,357.8,180523,,,A*76


$GNGGA,050820.800,4053.7349,N,11757.3446,E,1,07,4.1,340.0,M,-3.2,M,,0000*57
$GNRMC,050820.800,A,4053.7349,N,11757.3446,E,000.0,357.8,180523,,,A*78


$GNGGA,050821.000,4053.7349,N,11757.3446,E,1,07,4.1,340.0,M,-3.2,M,,0000*5E
$GNRMC,050821.000,A,4053.7349,N,11757.3446,E,000.0,357.8,180523,,,A*71


$GNGGA,050821.200,4053.7349,N,11757.3446,E,1,07,4.1,340.0,M,-3.2,M,,0000*5C
$GNGLL,4053.7349,N,11757.3446,E,050821.200,A,A*40
$GNGSA,A,3,17,03,19,01,24,,,,,,,,4.6,4.1,2.1*22
$GNGSA,A,3,212,210,,,,,,,,,,,4.6,4.1,2.1*2A
$GNRMC,050821.200,A,4053.7349,N,11757.3446,E,000.0,357.8,180523,,,A*73
$GNVTG,357.8,T,,M,000.0,N,000.0,K,A*1A
$GNZDA,050821.200,18,05,2023,00,00*4B


$GNGGA,050821.400,4053.7349,N,11757.3446,E,1,07,4.1,340.0,M,-3.2,M,,0000*5A
$GNRMC,050821.400,A,4053.7349,N,11757.3446,E,000.0,357.8,180523,,,A*75


$GNGGA,050821.600,4053.7349,N,11757.3446,E,1,07,4.1,340.0,M,-3.2,M,,0000*58
$GNRMC,050821.600,A,4053.7349,N,11757.3446,E,000.0,357.8,180523,,,A*77


$GNGGA,050821.800,4053.7349,N,11757.3446,E,1,07,4.1,340.0,M,-3.2,M,,0000*56
$GNRMC,050821.800,A,4053.7349,N,11757.3446,E,000.0,357.8,180523,,,A*79


$GNGGA,050822.000,4053.7349,N,11757.3446,E,1,07,4.1,340.0,M,-3.2,M,,0000*5D
$GNRMC,050822.000,A,4053.7349,N,11757.3446,E,000.0,357.8,180523,,,A*72


$GNGGA,050822.200,4053.7349,N,11757.3446,E,1,07,4.1,340.0,M,-3.2,M,,0000*5F
$GNGLL,4053.7349,N,11757.3446,E,050822.200,A,A*43
$GNGSA,A,3,17,03,19,01,24,,,,,,,,4.6,4.1,2.1*22
$GNGSA,A,3,212,210,,,,,,,,,,,4.6,4.1,2.1*2A
$GPGSV,2,1,07,17,74,018,40,19,58,316,40,03,48,068,33,01,19,055,36*7D
$GPGSV,2,2,07,24,07,298,34,11,07,243,16,21,00,064,15*4B
$BDGSV,1,1,02,210,78,276,30,212,46,292,38*67
$GNRMC,050822.200,A,4053.7349,N,11757.3446,E,000.0,357.8,180523,,,A*70
$GNVTG,357.8,T,,M,000.0,N,000.0,K,A*1A
$GNZDA,050822.200,18,05,2023,00,00*48
$GNGGA,050822.400,4053.7349,N,11757.3446,E,1,07,4.1,34J

0,M,-3.2,M,,0000*59
$GNRMC,050822.400,A,4053.7349,N,11757.3446,E,000.0,357.8,180523,,,A*76


$GNGGA,050822.600,4053.7349,N,11757.3446,E,1,07,4.1,340.0,M,-3.2,M,,0000*5B
$GNRMC,050822.600,A,4053.7349,N,11757.3446,E,000.0,357.8,180523,,,A*74


$GNGGA,050822.800,4053.7338,N,11757.3414,E,1,07,4.1,315.1,M,-3.2,M,,0000*55
$GNRMC,050822.800,A,4053.7338,N,11757.3414,E,000.8,357.6,180523,,,A*7D


$GNGGA,050823.000,4053.7338,N,11757.3414,E,1,06,4.1,315.4,M,-3.2,M,,0000*58
$GNRMC,050823.000,A,4053.7338,N,11757.3414,E,000.9,017.0,180523,,,A*74


$GNGGA,050823.200,4053.7338,N,11757.3414,E,1,07,4.1,315.3,M,-3.2,M,,0000*5C
$GNGLL,4053.7338,N,11757.3414,E,050823.200,A,A*43
$GNGSA,A,3,17,03,19,01,24,,,,,,,,4.6,4.1,2.1*22
$GNGSA,A,3,212,210,,,,,,,,,,,4.6,4.1,2.1*2A
$GNRMC,050823.200,A,4053.7338,N,11757.3414,E,000.0,017.0,180523,,,A*7F
$GNVTG,017.0,T,,M,000.0,N,000.0,K,A*15
$GNZDA,050823.200,18,05,2023,00,00*49


$GNGGA,050823.400,4053.7338,N,11757.3414,E,1,07,4.1,315.3,M,-3.2,M,,0000*5A
$GNRMC,050823.400,A,4053.7338,N,11757.3414,E,000.0,017.0,180523,,,A*79


$GNGGA,050823.600,4053.7338,N,11757.3414,E,1,07,4.1,315.3,M,-3.2,M,,0000*58
$GNRMC,050823.600,A,4053.7338,N,11757.3414,E,000.0,017.0,180523,,,A*7B


$GNGGA,050823.800,4053.7338,N,11757.3414,E,1,07,4.1,315.3,M,-3.2,M,,0000*56
$GNRMC,050823.800,A,4053.7338,N,11757.3414,E,000.0,017.0,180523,,,A*75


$GNGGA,050824.000,4053.7338,N,11757.3414,E,1,07,4.1,315.3,M,-3.2,M,,0000*59
$GNRMC,050824.000,A,4053.7338,N,11757.3414,E,000.0,017.0,180523,,,A*7A


$GNGGA,050824.200,4053.7338,N,11757.3414,E,1,07,4.1,315.3,M,-3.2,M,,0000*5B
$GNGLL,4053.7338,N,11757.3414,E,050824.200,A,A*44
$GNGSA,A,3,17,03,19,01,24,,,,,,,,4.6,4.1,2.1*22
$GNGSA,A,3,212,210,,,,,,,,,,,4.6,4.1,2.1*2A
$GNRMC,050824.200,A,4053.7338,N,11757.3414,E,000.0,017.0,180523,,,A*78
$GNVTG,017.0,T,,M,000.0,N,000.0,K,A*15
$GNZDA,050824.200,18,05,2023,00,00*4E


$GNGGA,050824.400,4053.7338,N,11757.3414,E,1,07,4.1,315.3,M,-3.2,M,,0000*5D
$GNRMC,050824.400,A,4053.7338,N,11757.3414,E,000.0,017.0,180523,,,A*7E


$GNGGA,050824.600,4053.7338,N,11757.3414,E,1,07,4.1,315.3,M,-3.2,M,,0000*5F
$GNRMC,050824.600,A,4053.7338,N,11757.3414,E,000.0,017.0,180523,,,A*7C


$GNGGA,050824.800,4053.7338,N,11757.3414,E,1,07,4.1,315.3,M,-3.2,M,,0000*51
$GNRMC,050824.800,A,4053.7338,N,11757.3414,E,000.0,017.0,180523,,,A*72


$GNGGA,050825.000,4053.7338,N,11757.3414,E,1,07,4.1,315.3,M,-3.2,M,,0000*58
$GNRMC,050825.000,A,4053.7338,N,11757.3414,E,000.0,017.0,180523,,,A*7B


$GNGGA,050825.200,4053.7338,N,11757.3414,E,1,07,4.1,315.3,M,-3.2,M,,0000*5A
$GNGLL,4053.7338,N,11757.3414,E,050825.200,A,A*45
$GNGSA,A,3,17,03,19,01,24,,,,,,,,4.6,4.1,2.1*22
$GNGSA,A,3,212,210,,,,,,,,,,,4.6,4.1,2.1*2A
$GPGSV,2,1,07,17,74,018,38,19,58,316,44,03,48,068,37,01,19,055,38*7C
$GPGSV,2,2,07,24,07,298,39,11,07,243,16,21,00,064,15*46
$BDGSV,1,1,02,210,78,276,25,212,46,292,33*68
$GNRMC,050825.200,A,4053.7338,N,11757.3414,E,000.0,017.0,180523,,,A*79
$GNVTG,017.0,T,,M,000.0,N,000.0,K,A*15
$GNZDA,050825.200,18,05,2023,00,00*4F
$GNGGA,050825.400,4053.7338,N,11757.3414,E,1,07,4.1,31J

3,M,-3.2,M,,0000*5C
$GNRMC,050825.400,A,4053.7338,N,11757.3414,E,000.0,017.0,180523,,,A*7F


$GNGGA,050825.600,4053.7338,N,11757.3414,E,1,07,4.1,315.3,M,-3.2,M,,0000*5E
$GNRMC,050825.600,A,4053.7338,N,11757.3414,E,000.0,017.0,180523,,,A*7D


$GNGGA,050825.800,4053.7339,N,11757.3413,E,1,07,4.1,317.5,M,-3.2,M,,0000*52
$GNRMC,050825.800,A,4053.7339,N,11757.3413,E,001.4,334.9,180523,,,A*7B


$GNGGA,050826.000,4053.7342,N,11757.3412,E,1,07,4.1,317.1,M,-3.2,M,,0000*50
$GNRMC,050826.000,A,4053.7342,N,11757.3412,E,005.1,350.8,180523,,,A*7F


$GNGGA,050826.200,4053.7348,N,11757.3413,E,1,07,4.3,317.2,M,-3.2,M,,0000*58
$GNGLL,4053.7348,N,11757.3413,E,050826.200,A,A*46
$GNGSA,A,3,03,19,01,24,17,,,,,,,,4.9,4.3,2.4*2A
$GNGSA,A,3,212,210,,,,,,,,,,,4.9,4.3,2.4*22
$GNRMC,050826.200,A,4053.7348,N,11757.3413,E,006.7,027.3,180523,,,A*7B
$GNVTG,027.3,T,,M,006.7,N,012.3,K,A*14
$GNZDA,050826.200,18,05,2023,00,00*4C


$GNGGA,050826.400,4053.7351,N,11757.3415,E,1,07,6.0,317.1,M,-3.2,M,,0000*52
$GNRMC,050826.400,A,4053.7351,N,11757.3415,E,005.9,038.4,180523,,,A*77


$GNGGA,050826.600,4053.7355,N,11757.3417,E,1,06,9.8,317.0,M,-3.2,M,,0000*51
$GNRMC,050826.600,A,4053.7355,N,11757.3417,E,005.8,044.9,180523,,,A*74


$GNGGA,050826.800,4053.7352,N,11757.3419,E,1,06,9.1,316.9,M,-3.2,M,,0000*57
$GNRMC,050826.800,A,4053.7352,N,11757.3419,E,003.6,050.3,180523,,,A*74


$GNGGA,050827.000,4053.7353,N,11757.3421,E,1,06,9.1,316.9,M,-3.2,M,,0000*54
$GNRMC,050827.000,A,4053.7353,N,11757.3421,E,003.2,042.8,180523,,,A*7B


$GNGGA,050827.200,4053.7353,N,11757.3421,E,1,05,9.1,316.9,M,-3.2,M,,0000*55
$GNGLL,4053.7353,N,11757.3421,E,050827.200,A,A*4C
$GNGSA,A,3,17,03,19,24,,,,,,,,,9.4,9.1,2.4*24
$GNGSA,A,3,212,,,,,,,,,,,,9.4,9.1,2.4*1E
$GNRMC,050827.200,A,4053.7353,N,11757.3421,E,003.2,042.8,180523,,,A*79
$GNVTG,042.8,T,,M,003.2,N,005.9,K,A*10
$GNZDA,050827.200,18,05,2023,00,00*4D


$GNGGA,050827.400,4053.7353,N,11757.3421,E,1,06,9.1,316.9,M,-3.2,M,,0000*50
$GNRMC,050827.400,A,4053.7353,N,11757.3421,E,003.2,042.8,180523,,,A*7F


$GNGGA,050827.600,4053.7353,N,11757.3421,E,1,05,9.1,316.9,M,-3.2,M,,0000*51
$GNRMC,050827.600,A,4053.7353,N,11757.3421,E,003.2,042.8,180523,,,A*7D


$GNGGA,050827.800,4053.7360,N,11757.3418,E,1,06,9.9,316.8,M,-3.2,M,,0000*5F
$GNRMC,050827.800,A,4053.7360,N,11757.3418,E,005.6,337.1,180523,,,A*73


$GNGGA,050828.000,4053.7366,N,11757.3418,E,1,06,6.3,316.7,M,-3.2,M,,0000*54
$GNRMC,050828.000,A,4053.7366,N,11757.3418,E,006.3,355.6,180523,,,A*77


$GNGGA,050828.200,4053.7368,N,11757.3419,E,1,06,6.3,316.5,M,-3.2,M,,0000*5B
$GNGLL,4053.7368,N,11757.3419,E,050828.200,A,A*40
$GNGSA,A,3,17,03,19,01,24,,,,,,,,6.7,6.3,2.4*24
$GNGSA,A,3,212,,,,,,,,,,,,6.7,6.3,2.4*1F
$GPGSV,2,1,07,17,74,018,26,19,58,316,33,03,48,068,29,01,19,055,25*70
$GPGSV,2,2,07,24,07,298,27,11,07,243,15,21,00,064,16*49
$BDGSV,1,1,02,210,78,276,20,212,46,292,22*6D
$GNRMC,050828.200,A,4053.7368,N,11757.3419,E,005.9,001.5,180523,,,A*72
$GNVTG,001.5,T,,M,005.9,N,010.9,K,A*13
$GNZDA,050828.200,18,05,2023,00,00*42
$GNGGA,050828.400,4053.7370,N,11757.3419,E,1,06,6.8,316.4J

,-3.2,M,,0000*5E
$GNRMC,050828.400,A,4053.7370,N,11757.3419,E,005.6,006.8,180523,,,A*78


$GNGGA,050828.600,4053.7371,N,11757.3420,E,1,06,6.8,316.5,M,-3.2,M,,0000*56
$GNRMC,050828.600,A,4053.7371,N,11757.3420,E,005.1,016.8,180523,,,A*77


$GNGGA,050828.800,4053.7372,N,11757.3422,E,1,06,6.8,316.5,M,-3.2,M,,0000*59
$GNRMC,050828.800,A,4053.7372,N,11757.3422,E,004.5,023.1,180523,,,A*72


$GNGGA,050829.000,4053.7372,N,11757.3422,E,1,06,6.8,316.5,M,-3.2,M,,0000*50
$GNRMC,050829.000,A,4053.7372,N,11757.3422,E,004.5,023.1,180523,,,A*7B


$GNGGA,050829.200,4053.7379,N,11757.3420,E,1,05,5.1,316.4,M,-3.2,M,,0000*53
$GNGLL,4053.7379,N,11757.3420,E,050829.200,A,A*4B
$GPGSA,A,3,03,01,24,17,19,,,,,,,,5.2,5.1,1.0*3A
$GNRMC,050829.200,A,4053.7379,N,11757.3420,E,004.7,016.1,180523,,,A*74
$GNVTG,016.1,T,,M,004.7,N,008.7,K,A*19
$GNZDA,050829.200,18,05,2023,00,00*43


$GNGGA,050829.400,4053.7386,N,11757.3416,E,1,05,5.1,316.3,M,-3.2,M,,0000*57
$GNRMC,050829.400,A,4053.7386,N,11757.3416,E,005.1,002.2,180523,,,A*76


$GNGGA,050829.600,4053.7392,N,11757.3412,E,1,05,5.1,316.3,M,-3.2,M,,0000*54
$GNRMC,050829.600,A,4053.7392,N,11757.3412,E,006.7,338.5,180523,,,A*7D


$GNGGA,050829.800,4053.7398,N,11757.3405,E,1,05,5.1,316.2,M,-3.2,M,,0000*57
$GNRMC,050829.800,A,4053.7398,N,11757.3405,E,008.7,324.5,180523,,,A*7C


$GNGGA,050830.000,4053.7408,N,11757.3406,E,1,07,5.3,316.3,M,-3.2,M,,0000*5B
$GNRMC,050830.000,A,4053.7408,N,11757.3406,E,007.6,338.5,180523,,,A*72


$GNGGA,050830.200,4053.7413,N,11757.3407,E,1,07,5.3,316.3,M,-3.2,M,,0000*52
$GNGLL,4053.7413,N,11757.3407,E,050830.200,A,A*4D
$GNGSA,A,3,19,01,17,03,24,,,,,,,,7.3,5.3,5.0*21
$GNGSA,A,3,212,210,,,,,,,,,,,7.3,5.3,5.0*29
$GNRMC,050830.200,A,4053.7413,N,11757.3407,E,006.8,349.0,180523,,,A*77
$GNVTG,349.0,T,,M,006.8,N,012.5,K,A*15
$GNZDA,050830.200,18,05,2023,00,00*4B


$GNGGA,050830.400,4053.7418,N,11757.3407,E,1,07,5.3,316.3,M,-3.2,M,,0000*5F
$GNRMC,050830.400,A,4053.7418,N,11757.3407,E,006.4,350.4,180523,,,A*7A


$GNGGA,050830.600,4053.7422,N,11757.3406,E,1,07,5.3,316.3,M,-3.2,M,,0000*55
$GNRMC,050830.600,A,4053.7422,N,11757.3406,E,006.1,350.1,180523,,,A*70


$GNGGA,050830.800,4053.7428,N,11757.3406,E,1,07,5.3,316.3,M,-3.2,M,,0000*51
$GNRMC,050830.800,A,4053.7428,N,11757.3406,E,006.2,351.7,180523,,,A*70


$GNGGA,050831.000,4053.7431,N,11757.3405,E,1,07,5.3,316.3,M,-3.2,M,,0000*53
$GNRMC,050831.000,A,4053.7431,N,11757.3405,E,006.2,351.7,180523,,,A*72


$GNGGA,050831.200,4053.7435,N,11757.3405,E,1,04,5.3,316.3,M,-3.2,M,,0000*56
$GNGLL,4053.7435,N,11757.3405,E,050831.200,A,A*4A
$GNGSA,A,3,19,01,,,,,,,,,,,7.3,5.3,5.0*22
$GNGSA,A,3,212,210,,,,,,,,,,,7.3,5.3,5.0*29
$GPGSV,2,1,07,17,74,018,19,19,58,316,20,03,48,068,10,01,19,055,23*72
$GPGSV,2,2,07,24,07,298,19,11,07,243,15,21,00,064,16*44
$BDGSV,1,1,02,210,78,275,18,212,46,292,21*66
$GNRMC,050831.200,A,4053.7435,N,11757.3405,E,006.2,351.7,180523,,,A*74
$GNVTG,351.7,T,,M,006.2,N,011.4,K,A*13
$GNZDA,050831.200,18,05,2023,00,00*4A
$GNGGA,050831.400,4053.7438,N,11757.3404,E,1,04,5.3,316.3,M,J

3.2,M,,0000*5C
$GNRMC,050831.400,A,4053.7438,N,11757.3404,E,006.2,351.7,180523,,,A*7E


$GNGGA,050831.600,4053.7438,N,11757.3404,E,0,00,99.9,316.3,M,-3.2,M,,0000*64
$GNRMC,050831.600,V,4053.7438,N,11757.3404,E,006.2,351.7,180523,,,N*64


$GNGGA,050831.800,4053.7447,N,11757.3421,E,1,05,5.3,316.3,M,-3.2,M,,0000*5E
$GNRMC,050831.800,A,4053.7447,N,11757.3421,E,006.2,351.7,180523,,,A*7D


$GNGGA,050832.000,4053.7423,N,11757.3409,E,1,06,5.5,316.3,M,-3.2,M,,0000*58
$GNRMC,050832.000,A,4053.7423,N,11757.3409,E,006.0,352.2,180523,,,A*7A


$GNGGA,050832.200,4053.7416,N,11757.3411,E,1,06,5.5,316.3,M,-3.2,M,,0000*55
$GNGLL,4053.7416,N,11757.3411,E,050832.200,A,A*4D
$GNGSA,A,3,03,01,17,19,24,,,,,,,,5.5,5.5,1.0*27
$GNGSA,A,3,212,,,,,,,,,,,,5.5,5.5,1.0*1C
$GNRMC,050832.200,A,4053.7416,N,11757.3411,E,005.6,353.2,180523,,,A*73
$GNVTG,353.2,T,,M,005.6,N,010.4,K,A*12
$GNZDA,050832.200,18,05,2023,00,00*49


$GNGGA,050832.400,4053.7409,N,11757.3414,E,1,06,5.5,316.3,M,-3.2,M,,0000*58
$GNRMC,050832.400,A,4053.7409,N,11757.3414,E,005.2,354.8,180523,,,A*77


$GNGGA,050832.600,4053.7406,N,11757.3415,E,1,06,5.5,316.3,M,-3.2,M,,0000*54
$GNRMC,050832.600,A,4053.7406,N,11757.3415,E,003.6,003.6,180523,,,A*76


$GNGGA,050832.800,4053.7399,N,11757.3419,E,1,06,5.5,316.3,M,-3.2,M,,0000*57
$GNRMC,050832.800,A,4053.7399,N,11757.3419,E,003.0,012.5,180523,,,A*70


$GNGGA,050833.000,4053.7400,N,11757.3419,E,1,06,6.7,316.2,M,-3.2,M,,0000*59
$GNRMC,050833.000,A,4053.7400,N,11757.3419,E,001.9,055.1,180523,,,A*72


$GNGGA,050833.200,4053.7400,N,11757.3421,E,1,06,6.7,316.0,M,-3.2,M,,0000*52
$GNGLL,4053.7400,N,11757.3421,E,050833.200,A,A*48
$GNGSA,A,3,17,03,19,01,24,,,,,,,,7.6,6.7,3.7*22
$GNGSA,A,3,212,,,,,,,,,,,,7.6,6.7,3.7*19
$GNRMC,050833.200,A,4053.7400,N,11757.3421,E,001.9,082.0,180523,,,A*70
$GNVTG,082.0,T,,M,001.9,N,003.4,K,A*16
$GNZDA,050833.200,18,05,2023,00,00*48


$GNGGA,050833.400,4053.7400,N,11757.3421,E,1,06,6.7,316.0,M,-3.2,M,,0000*54
$GNRMC,050833.400,A,4053.7400,N,11757.3421,E,001.9,082.0,180523,,,A*76


$GNGGA,050833.600,4053.7401,N,11757.3422,E,1,06,6.7,316.0,M,-3.2,M,,0000*54
$GNRMC,050833.600,A,4053.7401,N,11757.3422,E,001.9,082.0,180523,,,A*76


$GNGGA,050833.800,4053.7402,N,11757.3424,E,1,06,6.7,315.9,M,-3.2,M,,0000*55
$GNRMC,050833.800,A,4053.7402,N,11757.3424,E,001.7,060.5,180523,,,A*7A


$GNGGA,050834.000,4053.7402,N,11757.3425,E,1,06,6.7,315.9,M,-3.2,M,,0000*5B
$GNRMC,050834.000,A,4053.7402,N,11757.3425,E,001.4,040.8,180523,,,A*78


$GNGGA,050834.200,4053.7403,N,11757.3425,E,1,06,6.7,315.9,M,-3.2,M,,0000*58
$GNGLL,4053.7403,N,11757.3425,E,050834.200,A,A*48
$GNGSA,A,3,17,03,19,01,24,,,,,,,,7.6,6.7,3.7*22
$GNGSA,A,3,212,,,,,,,,,,,,7.6,6.7,3.7*19
$GPGSV,2,1,07,17,74,018,22,19,58,316,26,03,48,068,27,01,19,055,32*78
$GPGSV,2,2,07,24,07,298,19,11,07,243,11,21,00,064,15*43
$BDGSV,1,1,02,210,78,275,17,212,46,292,24*6C
$GNRMC,050834.200,A,4053.7403,N,11757.3425,E,001.5,032.9,180523,,,A*7E
$GNVTG,032.9,T,,M,001.5,N,002.8,K,A*15
$GNZDA,050834.200,18,05,2023,00,00*4F
$GNGGA,050834.400,4053.7413,N,11757.3421,E,1,06,6.7,315.9J

M,-3.2,M,,0000*5B
$GNRMC,050834.400,A,4053.7413,N,11757.3421,E,002.6,352.9,180523,,,A*78


$GNGGA,050834.600,4053.7415,N,11757.3419,E,1,06,6.7,316.0,M,-3.2,M,,0000*5E
$GNRMC,050834.600,A,4053.7415,N,11757.3419,E,002.4,350.0,180523,,,A*7E


$GNGGA,050834.800,4053.7411,N,11757.3419,E,1,06,6.7,316.0,M,-3.2,M,,0000*54
$GNRMC,050834.800,A,4053.7411,N,11757.3419,E,002.3,006.4,180523,,,A*77


$GNGGA,050835.000,4053.7411,N,11757.3419,E,1,05,6.7,316.0,M,-3.2,M,,0000*5E
$GNRMC,050835.000,A,4053.7411,N,11757.3419,E,002.3,006.4,180523,,,A*7E


$GNGGA,050835.200,4053.7411,N,11757.3419,E,1,05,6.7,316.0,M,-3.2,M,,0000*5C
$GNGLL,4053.7411,N,11757.3419,E,050835.200,A,A*45
$GNGSA,A,3,17,03,19,01,,,,,,,,,7.6,6.7,3.7*24
$GNGSA,A,3,212,,,,,,,,,,,,7.6,6.7,3.7*19
$GNRMC,050835.200,A,4053.7411,N,11757.3419,E,002.3,006.4,180523,,,A*7C
$GNVTG,006.4,T,,M,002.3,N,004.2,K,A*16
$GNZDA,050835.200,18,05,2023,00,00*4E


$GNGGA,050835.400,4053.7411,N,11757.3419,E,1,05,6.7,316.0,M,-3.2,M,,0000*5A
$GNRMC,050835.400,A,4053.7411,N,11757.3419,E,002.3,006.4,180523,,,A*7A


$GNGGA,050835.600,4053.7411,N,11757.3419,E,0,00,99.9,316.0,M,-3.2,M,,0000*64
$GNRMC,050835.600,V,4053.7411,N,11757.3419,E,002.3,006.4,180523,,,N*60


$GNGGA,050835.800,4053.7411,N,11757.3419,E,0,00,99.9,316.0,M,-3.2,M,,0000*6A
$GNRMC,050835.800,V,4053.7411,N,11757.3419,E,002.3,006.4,180523,,,N*6E


$GNGGA,050836.000,4053.7415,N,11757.3433,E,1,05,6.7,316.0,M,-3.2,M,,0000*51
$GNRMC,050836.000,A,4053.7415,N,11757.3433,E,002.3,006.4,180523,,,A*71


$GNGGA,050836.200,4053.7413,N,11757.3419,E,1,06,6.7,315.9,M,-3.2,M,,0000*54
$GNGLL,4053.7413,N,11757.3419,E,050836.200,A,A*44
$GNGSA,A,3,17,03,19,01,24,,,,,,,,7.7,6.7,3.7*23
$GNGSA,A,3,212,,,,,,,,,,,,7.7,6.7,3.7*18
$GNRMC,050836.200,A,4053.7413,N,11757.3419,E,001.9,358.2,180523,,,A*7A
$GNVTG,358.2,T,,M,001.9,N,003.5,K,A*11
$GNZDA,050836.200,18,05,2023,00,00*4D


$GNGGA,050836.400,4053.7415,N,11757.3418,E,1,06,6.7,315.9,M,-3.2,M,,0000*55
$GNRMC,050836.400,A,4053.7415,N,11757.3418,E,001.5,357.0,180523,,,A*7A


$GNGGA,050836.600,4053.7416,N,11757.3419,E,1,06,6.3,315.8,M,-3.2,M,,0000*50
$GNRMC,050836.600,A,4053.7416,N,11757.3419,E,001.5,359.8,180523,,,A*7C


$GNGGA,050836.800,4053.7418,N,11757.3419,E,1,06,6.3,315.7,M,-3.2,M,,0000*5F
$GNRMC,050836.800,A,4053.7418,N,11757.3419,E,001.5,354.1,180523,,,A*78


$GNGGA,050837.000,4053.7420,N,11757.3419,E,1,06,6.7,315.6,M,-3.2,M,,0000*58
$GNRMC,050837.000,A,4053.7420,N,11757.3419,E,001.2,359.3,180523,,,A*72


$GNGGA,050837.200,4053.7422,N,11757.3419,E,1,06,6.7,315.5,M,-3.2,M,,0000*5B
$GNGLL,4053.7422,N,11757.3419,E,050837.200,A,A*47
$GNGSA,A,3,17,03,19,01,24,,,,,,,,7.7,6.7,3.7*23
$GNGSA,A,3,212,,,,,,,,,,,,7.7,6.7,3.7*18
$GPGSV,2,1,07,17,74,018,36,19,58,316,32,03,48,068,28,01,19,055,40*72
$GPGSV,2,2,07,11,08,243,05,24,07,298,21,21,00,064,14*43
$BDGSV,1,1,02,210,78,275,19,212,46,292,26*60
$GNRMC,050837.200,A,4053.7422,N,11757.3419,E,001.2,358.4,180523,,,A*74
$GNVTG,358.4,T,,M,001.2,N,002.3,K,A*1B
$GNZDA,050837.200,18,05,2023,00,00*4C
$GNGGA,050837.400,4053.7424,N,11757.3419,E,1,06,6.7,315.4J

-3.2,M,,0000*5A
$GNRMC,050837.400,A,4053.7424,N,11757.3419,E,001.2,357.5,180523,,,A*7A


$GNGGA,050837.600,4053.7426,N,11757.3419,E,1,06,6.7,315.5,M,-3.2,M,,0000*5B
$GNRMC,050837.600,A,4053.7426,N,11757.3419,E,001.3,356.5,180523,,,A*7A


$GNGGA,050837.800,4053.7428,N,11757.3419,E,1,06,6.7,315.5,M,-3.2,M,,0000*5B
$GNRMC,050837.800,A,4053.7428,N,11757.3419,E,001.3,013.2,180523,,,A*7F


$GNGGA,050838.000,4053.7430,N,11757.3420,E,1,06,6.3,315.4,M,-3.2,M,,0000*5A
$GNRMC,050838.000,A,4053.7430,N,11757.3420,E,001.2,003.4,180523,,,A*7D


$GNGGA,050838.200,4053.7431,N,11757.3420,E,1,06,6.3,315.3,M,-3.2,M,,0000*5E
$GNGLL,4053.7431,N,11757.3420,E,050838.200,A,A*40
$GNGSA,A,3,17,03,19,01,24,,,,,,,,6.7,6.3,2.4*24
$GNGSA,A,3,212,,,,,,,,,,,,6.7,6.3,2.4*1F
$GNRMC,050838.200,A,4053.7431,N,11757.3420,E,001.2,001.1,180523,,,A*79
$GNVTG,001.1,T,,M,001.2,N,002.2,K,A*10
$GNZDA,050838.200,18,05,2023,00,00*43


$GNGGA,050838.400,4053.7433,N,11757.3419,E,1,06,6.3,315.1,M,-3.2,M,,0000*52
$GNRMC,050838.400,A,4053.7433,N,11757.3419,E,001.1,000.4,180523,,,A*70


$GNGGA,050838.600,4053.7434,N,11757.3419,E,1,06,6.3,314.9,M,-3.2,M,,0000*5E
$GNRMC,050838.600,A,4053.7434,N,11757.3419,E,001.0,004.1,180523,,,A*75


$GNGGA,050838.800,4053.7434,N,11757.3419,E,1,06,6.3,314.7,M,-3.2,M,,0000*5E
$GNRMC,050838.800,A,4053.7434,N,11757.3419,E,000.8,357.9,180523,,,A*7F


$GNGGA,050839.000,4053.7435,N,11757.3419,E,1,06,6.3,314.5,M,-3.2,M,,0000*54
$GNRMC,050839.000,A,4053.7435,N,11757.3419,E,000.0,357.9,180523,,,A*7F


$GNGGA,050839.200,4053.7433,N,11757.3419,E,1,06,6.3,314.1,M,-3.2,M,,0000*54
$GNGLL,4053.7433,N,11757.3419,E,050839.200,A,A*49
$GNGSA,A,3,17,03,19,01,24,,,,,,,,6.8,6.3,2.4*2B
$GNGSA,A,3,212,,,,,,,,,,,,6.8,6.3,2.4*10
$GNRMC,050839.200,A,4053.7433,N,11757.3419,E,000.8,173.8,180523,,,A*76
$GNVTG,173.8,T,,M,000.8,N,001.6,K,A*11
$GNZDA,050839.200,18,05,2023,00,00*42


$GNGGA,050839.400,4053.7432,N,11757.3419,E,1,06,6.3,314.1,M,-3.2,M,,0000*53
$GNRMC,050839.400,A,4053.7432,N,11757.3419,E,000.0,173.8,180523,,,A*79


$GNGGA,050839.600,4053.7430,N,11757.3418,E,1,06,6.3,313.8,M,-3.2,M,,0000*5C
$GNRMC,050839.600,A,4053.7430,N,11757.3418,E,000.0,173.8,180523,,,A*78


$GNGGA,050839.800,4053.7429,N,11757.3418,E,1,06,6.3,313.6,M,-3.2,M,,0000*54
$GNRMC,050839.800,A,4053.7429,N,11757.3418,E,000.0,173.8,180523,,,A*7E


$GNGGA,050840.000,4053.7428,N,11757.3418,E,1,06,6.3,313.4,M,-3.2,M,,0000*51
$GNRMC,050840.000,A,4053.7428,N,11757.3418,E,000.0,173.8,180523,,,A*79


$GNGGA,050840.200,4053.7427,N,11757.3418,E,1,06,6.3,313.4,M,-3.2,M,,0000*5C
$GNGLL,4053.7427,N,11757.3418,E,050840.200,A,A*43
$GNGSA,A,3,17,03,19,01,24,,,,,,,,6.8,6.3,2.4*2B
$GNGSA,A,3,212,,,,,,,,,,,,6.8,6.3,2.4*10
$GPGSV,2,1,07,17,74,019,30,19,58,316,42,03,48,068,36,01,19,055,44*79
$GPGSV,2,2,07,11,08,243,01,24,07,298,28,21,00,064,15*4F
$BDGSV,1,1,02,210,78,275,,212,46,292,28*66
$GNRMC,050840.200,A,4053.7427,N,11757.3418,E,000.0,173.8,180523,,,A*74
$GNVTG,173.8,T,,M,000.0,N,000.0,K,A*1E
$GNZDA,050840.200,18,05,2023,00,00*4C
$GNGGA,050840.400,4053.7426,N,11757.3418,E,1,06,6.3,313.5,MJ

2,M,,0000*5A
$GNRMC,050840.400,A,4053.7426,N,11757.3418,E,000.0,173.8,180523,,,A*73


$GNGGA,050840.600,4053.7426,N,11757.3418,E,1,06,6.3,313.5,M,-3.2,M,,0000*58
$GNRMC,050840.600,A,4053.7426,N,11757.3418,E,000.0,173.8,180523,,,A*71


$GNGGA,050840.800,4053.7426,N,11757.3418,E,1,06,6.3,313.5,M,-3.2,M,,0000*56
$GNRMC,050840.800,A,4053.7426,N,11757.3418,E,000.0,173.8,180523,,,A*7F


$GNGGA,050841.000,4053.7426,N,11757.3418,E,1,06,6.3,313.5,M,-3.2,M,,0000*5F
$GNRMC,050841.000,A,4053.7426,N,11757.3418,E,000.0,173.8,180523,,,A*76


$GNGGA,050841.200,4053.7426,N,11757.3418,E,1,06,6.3,313.5,M,-3.2,M,,0000*5D
$GNGLL,4053.7426,N,11757.3418,E,050841.200,A,A*43
$GNGSA,A,3,17,03,19,01,24,,,,,,,,6.8,6.3,2.4*2B
$GNGSA,A,3,212,,,,,,,,,,,,6.8,6.3,2.4*10
$GNRMC,050841.200,A,4053.7426,N,11757.3418,E,000.0,173.8,180523,,,A*74
$GNVTG,173.8,T,,M,000.0,N,000.0,K,A*1E
$GNZDA,050841.200,18,05,2023,00,00*4D


$GNGGA,050841.400,4053.7426,N,11757.3418,E,1,06,6.3,313.5,M,-3.2,M,,0000*5B
$GNRMC,050841.400,A,4053.7426,N,11757.3418,E,000.0,173.8,180523,,,A*72


$GNGGA,050841.600,4053.7426,N,11757.3418,E,1,06,6.3,313.5,M,-3.2,M,,0000*59
$GNRMC,050841.600,A,4053.7426,N,11757.3418,E,000.0,173.8,180523,,,A*70


$GNGGA,050841.800,4053.7426,N,11757.3418,E,1,06,6.3,313.5,M,-3.2,M,,0000*57
$GNRMC,050841.800,A,4053.7426,N,11757.3418,E,000.0,173.8,180523,,,A*7E


$GNGGA,050842.000,4053.7426,N,11757.3418,E,1,06,6.3,313.5,M,-3.2,M,,0000*5C
$GNRMC,050842.000,A,4053.7426,N,11757.3418,E,000.0,173.8,180523,,,A*75


$GNGGA,050842.200,4053.7426,N,11757.3418,E,1,06,6.3,313.5,M,-3.2,M,,0000*5E
$GNGLL,4053.7426,N,11757.3418,E,050842.200,A,A*40
$GNGSA,A,3,17,03,19,01,24,,,,,,,,6.8,6.3,2.4*2B
$GNGSA,A,3,212,,,,,,,,,,,,6.8,6.3,2.4*10
$GNRMC,050842.200,A,4053.7426,N,11757.3418,E,000.0,173.8,180523,,,A*77
$GNVTG,173.8,T,,M,000.0,N,000.0,K,A*1E
$GNZDA,050842.200,18,05,2023,00,00*4E


$GNGGA,050842.400,4053.7426,N,11757.3418,E,1,06,6.3,313.5,M,-3.2,M,,0000*58
$GNRMC,050842.400,A,4053.7426,N,11757.3418,E,000.0,173.8,180523,,,A*71


$GNGGA,050842.600,4053.7426,N,11757.3418,E,1,06,6.3,313.5,M,-3.2,M,,0000*5A
$GNRMC,050842.600,A,4053.7426,N,11757.3418,E,000.0,173.8,180523,,,A*73


$GNGGA,050842.800,4053.7426,N,11757.3418,E,1,06,6.3,313.5,M,-3.2,M,,0000*54
$GNRMC,050842.800,A,4053.7426,N,11757.3418,E,000.0,173.8,180523,,,A*7D


$GNGGA,050843.000,4053.7426,N,11757.3418,E,1,06,6.3,313.5,M,-3.2,M,,0000*5D
$GNRMC,050843.000,A,4053.7426,N,11757.3418,E,000.0,173.8,180523,,,A*74


$GNGGA,050843.200,4053.7426,N,11757.3418,E,1,06,6.3,313.5,M,-3.2,M,,0000*5F
$GNGLL,4053.7426,N,11757.3418,E,050843.200,A,A*41
$GNGSA,A,3,17,03,19,01,24,,,,,,,,6.8,6.3,2.4*2B
$GNGSA,A,3,212,,,,,,,,,,,,6.8,6.3,2.4*10
$GPGSV,2,1,07,17,74,019,27,19,58,316,41,03,48,068,39,01,19,055,44*73
$GPGSV,2,2,07,11,08,243,09,24,07,298,29,21,00,064,15*46
$BDGSV,1,1,02,210,78,275,15,212,46,292,27*6D
$GNRMC,050843.200,A,4053.7426,N,11757.3418,E,000.0,173.8,180523,,,A*76
$GNVTG,173.8,T,,M,000.0,N,000.0,K,A*1E
$GNZDA,050843.200,18,05,2023,00,00*4F
$GNGGA,050843.400,4053.7426,N,11757.3418,E,1,06,6.3,313.5J

3.2,M,,0000*59
$GNRMC,050843.400,A,4053.7426,N,11757.3418,E,000.0,173.8,180523,,,A*70


$GNGGA,050843.600,4053.7426,N,11757.3418,E,1,06,6.3,313.5,M,-3.2,M,,0000*5B
$GNRMC,050843.600,A,4053.7426,N,11757.3418,E,000.0,173.8,180523,,,A*72


$GNGGA,050843.800,4053.7426,N,11757.3418,E,1,06,6.3,313.5,M,-3.2,M,,0000*55
$GNRMC,050843.800,A,4053.7426,N,11757.3418,E,000.0,173.8,180523,,,A*7C


$GNGGA,050844.000,4053.7426,N,11757.3418,E,1,07,4.1,313.5,M,-3.2,M,,0000*5B
$GNRMC,050844.000,A,4053.7426,N,11757.3418,E,000.0,173.8,180523,,,A*73


$GNGGA,050844.200,4053.7426,N,11757.3418,E,1,07,4.3,313.5,M,-3.2,M,,0000*5B
$GNGLL,4053.7426,N,11757.3418,E,050844.200,A,A*46
$GNGSA,A,3,03,19,01,24,17,,,,,,,,4.9,4.3,2.4*2A
$GNGSA,A,3,212,210,,,,,,,,,,,4.9,4.3,2.4*22
$GNRMC,050844.200,A,4053.7426,N,11757.3418,E,000.0,173.8,180523,,,A*71
$GNVTG,173.8,T,,M,000.0,N,000.0,K,A*1E
$GNZDA,050844.200,18,05,2023,00,00*48


$GNGGA,050844.400,4053.7426,N,11757.3418,E,1,07,4.1,313.5,M,-3.2,M,,0000*5F
$GNRMC,050844.400,A,4053.7426,N,11757.3418,E,000.0,173.8,180523,,,A*77


$GNGGA,050844.600,4053.7426,N,11757.3418,E,1,07,4.1,313.5,M,-3.2,M,,0000*5D
$GNRMC,050844.600,A,4053.7426,N,11757.3418,E,000.0,173.8,180523,,,A*75


$GNGGA,050844.800,4053.7426,N,11757.3418,E,1,07,4.3,313.5,M,-3.2,M,,0000*51
$GNRMC,050844.800,A,4053.7426,N,11757.3418,E,000.0,173.8,180523,,,A*7B


$GNGGA,050845.000,4053.7426,N,11757.3418,E,1,07,4.3,313.5,M,-3.2,M,,0000*58
$GNRMC,050845.000,A,4053.7426,N,11757.3418,E,000.0,173.8,180523,,,A*72


$GNGGA,050845.200,4053.7426,N,11757.3418,E,1,07,4.3,313.5,M,-3.2,M,,0000*5A
$GNGLL,4053.7426,N,11757.3418,E,050845.200,A,A*47
$GNGSA,A,3,03,19,01,24,17,,,,,,,,4.9,4.3,2.4*2A
$GNGSA,A,3,212,210,,,,,,,,,,,4.9,4.3,2.4*22
$GNRMC,050845.200,A,4053.7426,N,11757.3418,E,000.0,173.8,180523,,,A*70
$GNVTG,173.8,T,,M,000.0,N,000.0,K,A*1E
$GNZDA,050845.200,18,05,2023,00,00*49


$GNGGA,050845.400,4053.7426,N,11757.3418,E,1,07,4.3,313.5,M,-3.2,M,,0000*5C
$GNRMC,050845.400,A,4053.7426,N,11757.3418,E,000.0,173.8,180523,,,A*76


$GNGGA,050845.600,4053.7426,N,11757.3418,E,1,07,4.3,313.5,M,-3.2,M,,0000*5E
$GNRMC,050845.600,A,4053.7426,N,11757.3418,E,000.0,173.8,180523,,,A*74


$GNGGA,050845.800,4053.7426,N,11757.3418,E,1,07,4.3,313.5,M,-3.2,M,,0000*50
$GNRMC,050845.800,A,4053.7426,N,11757.3418,E,000.0,173.8,180523,,,A*7A


$GNGGA,050846.000,4053.7426,N,11757.3418,E,1,07,4.3,313.5,M,-3.2,M,,0000*5B
$GNRMC,050846.000,A,4053.7426,N,11757.3418,E,000.0,173.8,180523,,,A*71


$GNGGA,050846.200,4053.7426,N,11757.3418,E,1,07,4.3,313.5,M,-3.2,M,,0000*59
$GNGLL,4053.7426,N,11757.3418,E,050846.200,A,A*44
$GNGSA,A,3,03,19,01,24,17,,,,,,,,4.9,4.3,2.4*2A
$GNGSA,A,3,212,210,,,,,,,,,,,4.9,4.3,2.4*22
$GPGSV,2,1,07,17,74,019,26,19,58,316,40,03,48,068,37,01,19,055,44*7D
$GPGSV,2,2,07,11,08,243,03,24,07,298,29,21,00,064,15*4C
$BDGSV,1,1,02,210,78,275,24,212,46,292,29*61
$GNRMC,050846.200,A,4053.7426,N,11757.3418,E,000.0,173.8,180523,,,A*73
$GNVTG,173.8,T,,M,000.0,N,000.0,K,A*1E
$GNZDA,050846.200,18,05,2023,00,00*4A
$GNGGA,050846.400,4053.7426,N,11757.3418,E,1,07,4.3,31J

,M,-3.2,M,,0000*5F
$GNRMC,050846.400,A,4053.7426,N,11757.3418,E,000.0,173.8,180523,,,A*75


$GNGGA,050846.600,4053.7426,N,11757.3418,E,1,07,4.3,313.5,M,-3.2,M,,0000*5D
$GNRMC,050846.600,A,4053.7426,N,11757.3418,E,000.0,173.8,180523,,,A*77


$GNGGA,050846.800,4053.7426,N,11757.3418,E,1,07,4.3,313.5,M,-3.2,M,,0000*53
$GNRMC,050846.800,A,4053.7426,N,11757.3418,E,000.0,173.8,180523,,,A*79


$GNGGA,050847.000,4053.7426,N,11757.3418,E,1,07,4.3,313.5,M,-3.2,M,,0000*5A
$GNRMC,050847.000,A,4053.7426,N,11757.3418,E,000.0,173.8,180523,,,A*70


$GNGGA,050847.200,4053.7426,N,11757.3418,E,1,07,4.3,313.5,M,-3.2,M,,0000*58
$GNGLL,4053.7426,N,11757.3418,E,050847.200,A,A*45
$GNGSA,A,3,03,19,01,24,17,,,,,,,,4.9,4.3,2.4*2A
$GNGSA,A,3,212,210,,,,,,,,,,,4.9,4.3,2.4*22
$GNRMC,050847.200,A,4053.7426,N,11757.3418,E,000.0,173.8,180523,,,A*72
$GNVTG,173.8,T,,M,000.0,N,000.0,K,A*1E
$GNZDA,050847.200,18,05,2023,00,00*4B


$GNGGA,050847.400,4053.7426,N,11757.3418,E,1,07,4.3,313.5,M,-3.2,M,,0000*5E
$GNRMC,050847.400,A,4053.7426,N,11757.3418,E,000.0,173.8,180523,,,A*74


$GNGGA,050847.600,4053.7426,N,11757.3418,E,1,07,4.3,313.5,M,-3.2,M,,0000*5C
$GNRMC,050847.600,A,4053.7426,N,11757.3418,E,000.0,173.8,180523,,,A*76


$GNGGA,050847.800,4053.7426,N,11757.3418,E,1,07,4.3,313.5,M,-3.2,M,,0000*52
$GNRMC,050847.800,A,4053.7426,N,11757.3418,E,000.0,173.8,180523,,,A*78


$GNGGA,050848.000,4053.7426,N,11757.3418,E,1,07,4.3,313.5,M,-3.2,M,,0000*55
$GNRMC,050848.000,A,4053.7426,N,11757.3418,E,000.0,173.8,180523,,,A*7F


$GNGGA,050848.200,4053.7426,N,11757.3418,E,1,07,4.1,313.5,M,-3.2,M,,0000*55
$GNGLL,4053.7426,N,11757.3418,E,050848.200,A,A*4A
$GNGSA,A,3,17,03,19,01,24,,,,,,,,4.6,4.1,2.1*22
$GNGSA,A,3,212,210,,,,,,,,,,,4.6,4.1,2.1*2A
$GNRMC,050848.200,A,4053.7426,N,11757.3418,E,000.0,173.8,180523,,,A*7D
$GNVTG,173.8,T,,M,000.0,N,000.0,K,A*1E
$GNZDA,050848.200,18,05,2023,00,00*44


$GNGGA,050848.400,4053.7426,N,11757.3418,E,1,07,4.1,313.5,M,-3.2,M,,0000*53
$GNRMC,050848.400,A,4053.7426,N,11757.3418,E,000.0,173.8,180523,,,A*7B


$GNGGA,050848.600,4053.7426,N,11757.3418,E,1,07,4.1,313.5,M,-3.2,M,,0000*51
$GNRMC,050848.600,A,4053.7426,N,11757.3418,E,000.0,173.8,180523,,,A*79


$GNGGA,050848.800,4053.7426,N,11757.3418,E,1,07,4.1,313.5,M,-3.2,M,,0000*5F
$GNRMC,050848.800,A,4053.7426,N,11757.3418,E,000.0,173.8,180523,,,A*77


$GNGGA,050849.000,4053.7426,N,11757.3418,E,1,07,4.3,313.5,M,-3.2,M,,0000*54
$GNRMC,050849.000,A,4053.7426,N,11757.3418,E,000.0,173.8,180523,,,A*7E


$GNGGA,050849.200,4053.7426,N,11757.3418,E,1,07,4.3,313.5,M,-3.2,M,,0000*56
$GNGLL,4053.7426,N,11757.3418,E,050849.200,A,A*4B
$GNGSA,A,3,03,19,01,24,17,,,,,,,,4.9,4.3,2.4*2A
$GNGSA,A,3,212,210,,,,,,,,,,,4.9,4.3,2.4*22
$GPGSV,2,1,07,17,74,019,32,19,58,316,38,03,48,068,38,01,18,055,44*79
$GPGSV,2,2,07,11,08,243,07,24,07,298,28,21,00,064,15*49
$BDGSV,1,1,02,210,78,275,24,212,46,293,30*68
$GNRMC,050849.200,A,4053.7426,N,11757.3418,E,000.0,173.8,180523,,,A*7C
$GNVTG,173.8,T,,M,000.0,N,000.0,K,A*1E
$GNZDA,050849.200,18,05,2023,00,00*45
$GNGGA,050849.400,4053.7426,N,11757.3418,E,1,07,4.3,31J

.5,M,-3.2,M,,0000*50
$GNRMC,050849.400,A,4053.7426,N,11757.3418,E,000.0,173.8,180523,,,A*7A


$GNGGA,050849.600,4053.7426,N,11757.3418,E,1,07,4.1,313.5,M,-3.2,M,,0000*50
$GNRMC,050849.600,A,4053.7426,N,11757.3418,E,000.0,173.8,180523,,,A*78


$GNGGA,050849.800,4053.7426,N,11757.3418,E,1,07,4.1,313.5,M,-3.2,M,,0000*5E
$GNRMC,050849.800,A,4053.7426,N,11757.3418,E,000.0,173.8,180523,,,A*76


$GNGGA,050850.000,4053.7426,N,11757.3418,E,1,07,4.1,313.5,M,-3.2,M,,0000*5E
$GNRMC,050850.000,A,4053.7426,N,11757.3418,E,000.0,173.8,180523,,,A*76


$GNGGA,050850.200,4053.7426,N,11757.3418,E,1,07,4.1,313.5,M,-3.2,M,,0000*5C
$GNGLL,4053.7426,N,11757.3418,E,050850.200,A,A*43
$GNGSA,A,3,17,03,19,01,24,,,,,,,,4.6,4.1,2.1*22
$GNGSA,A,3,212,210,,,,,,,,,,,4.6,4.1,2.1*2A
$GNRMC,050850.200,A,4053.7426,N,11757.3418,E,000.0,173.8,180523,,,A*74
$GNVTG,173.8,T,,M,000.0,N,000.0,K,A*1E
$GNZDA,050850.200,18,05,2023,00,00*4D


$GNGGA,050850.400,4053.7426,N,11757.3418,E,1,07,4.1,313.5,M,-3.2,M,,0000*5A
$GNRMC,050850.400,A,4053.7426,N,11757.3418,E,000.0,173.8,180523,,,A*72


$GNGGA,050850.600,4053.7426,N,11757.3418,E,1,07,4.1,313.5,M,-3.2,M,,0000*58
$GNRMC,050850.600,A,4053.7426,N,11757.3418,E,000.0,173.8,180523,,,A*70


$GNGGA,050850.800,4053.7426,N,11757.3418,E,1,07,4.1,313.5,M,-3.2,M,,0000*56
$GNRMC,050850.800,A,4053.7426,N,11757.3418,E,000.0,173.8,180523,,,A*7E


$GNGGA,050851.000,4053.7426,N,11757.3418,E,1,07,4.1,313.5,M,-3.2,M,,0000*5F
$GNRMC,050851.000,A,4053.7426,N,11757.3418,E,000.0,173.8,180523,,,A*77


$GNGGA,050851.200,4053.7426,N,11757.3418,E,1,07,4.1,313.5,M,-3.2,M,,0000*5D
$GNGLL,4053.7426,N,11757.3418,E,050851.200,A,A*42
$GNGSA,A,3,17,03,19,01,24,,,,,,,,4.6,4.1,2.1*22
$GNGSA,A,3,212,210,,,,,,,,,,,4.6,4.1,2.1*2A
$GNRMC,050851.200,A,4053.7426,N,11757.3418,E,000.0,173.8,180523,,,A*75
$GNVTG,173.8,T,,M,000.0,N,000.0,K,A*1E
$GNZDA,050851.200,18,05,2023,00,00*4C


$GNGGA,050851.400,4053.7426,N,11757.3418,E,1,07,4.1,313.5,M,-3.2,M,,0000*5B
$GNRMC,050851.400,A,4053.7426,N,11757.3418,E,000.0,173.8,180523,,,A*73


$GNGGA,050851.600,4053.7426,N,11757.3418,E,1,07,4.1,313.5,M,-3.2,M,,0000*59
$GNRMC,050851.600,A,4053.7426,N,11757.3418,E,000.0,173.8,180523,,,A*71


$GNGGA,050851.800,4053.7426,N,11757.3418,E,1,07,4.1,313.5,M,-3.2,M,,0000*57
$GNRMC,050851.800,A,4053.7426,N,11757.3418,E,000.0,173.8,180523,,,A*7F


$GNGGA,050852.000,4053.7426,N,11757.3418,E,1,07,4.1,313.5,M,-3.2,M,,0000*5C
$GNRMC,050852.000,A,4053.7426,N,11757.3418,E,000.0,173.8,180523,,,A*74


$GNGGA,050852.200,4053.7426,N,11757.3418,E,1,07,4.1,313.5,M,-3.2,M,,0000*5E
$GNGLL,4053.7426,N,11757.3418,E,050852.200,A,A*41
$GNGSA,A,3,17,03,19,01,24,,,,,,,,4.6,4.1,2.1*22
$GNGSA,A,3,212,210,,,,,,,,,,,4.6,4.1,2.1*2A
$GPGSV,2,1,06,17,74,019,34,19,58,316,41,03,47,068,34,01,18,055,44*73
$GPGSV,2,2,06,11,08,243,02,24,07,298,30*71
$BDGSV,1,1,02,210,78,275,22,212,46,293,28*67
$GNRMC,050852.200,A,4053.7426,N,11757.3418,E,000.0,173.8,180523,,,A*76
$GNVTG,173.8,T,,M,000.0,N,000.0,K,A*1E
$GNZDA,050852.200,18,05,2023,00,00*4F
$GNGGA,050852.400,4053.7426,N,11757.3418,E,1,07,4.1,313.5,M,-3.2,M,J

0000*58
$GNRMC,050852.400,A,4053.7426,N,11757.3418,E,000.0,173.8,180523,,,A*70


$GNGGA,050852.600,4053.7426,N,11757.3418,E,1,07,4.1,313.5,M,-3.2,M,,0000*5A
$GNRMC,050852.600,A,4053.7426,N,11757.3418,E,000.0,173.8,180523,,,A*72


$GNGGA,050852.800,4053.7426,N,11757.3418,E,1,07,4.1,313.5,M,-3.2,M,,0000*54
$GNRMC,050852.800,A,4053.7426,N,11757.3418,E,000.0,173.8,180523,,,A*7C


$GNGGA,050853.000,4053.7426,N,11757.3418,E,1,07,4.1,313.5,M,-3.2,M,,0000*5D
$GNRMC,050853.000,A,4053.7426,N,11757.3418,E,000.0,173.8,180523,,,A*75


$GNGGA,050853.200,4053.7426,N,11757.3418,E,1,07,4.1,313.5,M,-3.2,M,,0000*5F
$GNGLL,4053.7426,N,11757.3418,E,050853.200,A,A*40
$GNGSA,A,3,17,03,19,01,24,,,,,,,,4.6,4.1,2.1*22
$GNGSA,A,3,212,210,,,,,,,,,,,4.6,4.1,2.1*2A
$GNRMC,050853.200,A,4053.7426,N,11757.3418,E,000.0,173.8,180523,,,A*77
$GNVTG,173.8,T,,M,000.0,N,000.0,K,A*1E
$GNZDA,050853.200,18,05,2023,00,00*4E


$GNGGA,050853.400,4053.7426,N,11757.3418,E,1,07,4.1,313.5,M,-3.2,M,,0000*59
$GNRMC,050853.400,A,4053.7426,N,11757.3418,E,000.0,173.8,180523,,,A*71


$GNGGA,050853.600,4053.7426,N,11757.3418,E,1,07,4.1,313.5,M,-3.2,M,,0000*5B
$GNRMC,050853.600,A,4053.7426,N,11757.3418,E,000.0,173.8,180523,,,A*73


$GNGGA,050853.800,4053.7426,N,11757.3418,E,1,07,4.1,313.5,M,-3.2,M,,0000*55
$GNRMC,050853.800,A,4053.7426,N,11757.3418,E,000.0,173.8,180523,,,A*7D


$GNGGA,050854.000,4053.7426,N,11757.3418,E,1,07,4.1,313.5,M,-3.2,M,,0000*5A
$GNRMC,050854.000,A,4053.7426,N,11757.3418,E,000.0,173.8,180523,,,A*72


$GNGGA,050854.200,4053.7426,N,11757.3418,E,1,07,4.1,313.5,M,-3.2,M,,0000*58
$GNGLL,4053.7426,N,11757.3418,E,050854.200,A,A*47
$GNGSA,A,3,17,03,19,01,24,,,,,,,,4.6,4.1,2.1*22
$GNGSA,A,3,212,210,,,,,,,,,,,4.6,4.1,2.1*2A
$GNRMC,050854.200,A,4053.7426,N,11757.3418,E,000.0,173.8,180523,,,A*70
$GNVTG,173.8,T,,M,000.0,N,000.0,K,A*1E
$GNZDA,050854.200,18,05,2023,00,00*49


$GNGGA,050854.400,4053.7426,N,11757.3418,E,1,07,4.1,313.5,M,-3.2,M,,0000*5E
$GNRMC,050854.400,A,4053.7426,N,11757.3418,E,000.0,173.8,180523,,,A*76


$GNGGA,050854.600,4053.7426,N,11757.3418,E,1,07,4.1,313.5,M,-3.2,M,,0000*5C
$GNRMC,050854.600,A,4053.7426,N,11757.3418,E,000.0,173.8,180523,,,A*74


$GNGGA,050854.800,4053.7426,N,11757.3418,E,1,07,4.1,313.5,M,-3.2,M,,0000*52
$GNRMC,050854.800,A,4053.7426,N,11757.3418,E,000.0,173.8,180523,,,A*7A


$GNGGA,050855.000,4053.7426,N,11757.3418,E,1,07,4.1,313.5,M,-3.2,M,,0000*5B
$GNRMC,050855.000,A,4053.7426,N,11757.3418,E,000.0,173.8,180523,,,A*73


$GNGGA,050855.200,4053.7426,N,11757.3418,E,1,07,4.1,313.5,M,-3.2,M,,0000*59
$GNGLL,4053.7426,N,11757.3418,E,050855.200,A,A*46
$GNGSA,A,3,17,03,19,01,24,,,,,,,,4.6,4.1,2.1*22
$GNGSA,A,3,212,210,,,,,,,,,,,4.6,4.1,2.1*2A
$GPGSV,2,1,06,17,74,019,35,19,58,316,41,03,47,068,35,01,18,055,43*74
$GPGSV,2,2,06,11,08,243,17,24,07,298,28*7C
$BDGSV,1,1,02,210,78,275,23,212,46,293,26*68
$GNRMC,050855.200,A,4053.7426,N,11757.3418,E,000.0,173.8,180523,,,A*71
$GNVTG,173.8,T,,M,000.0,N,000.0,K,A*1E
$GNZDA,050855.200,18,05,2023,00,00*48
$GNGGA,050855.400,4053.7426,N,11757.3418,E,1,07,4.1,313.5,M,-3.2,M,J

0*5F
$GNRMC,050855.400,A,4053.7426,N,11757.3418,E,000.0,173.8,180523,,,A*77


$GNGGA,050855.600,4053.7426,N,11757.3418,E,1,07,4.1,313.5,M,-3.2,M,,0000*5D
$GNRMC,050855.600,A,4053.7426,N,11757.3418,E,000.0,173.8,180523,,,A*75


$GNGGA,050855.800,4053.7426,N,11757.3418,E,1,07,4.1,313.5,M,-3.2,M,,0000*53
$GNRMC,050855.800,A,4053.7426,N,11757.3418,E,000.0,173.8,180523,,,A*7B


$GNGGA,050856.000,4053.7406,N,11757.3415,E,1,07,4.1,319.5,M,-3.2,M,,0000*5D
$GNRMC,050856.000,A,4053.7406,N,11757.3415,E,000.9,173.8,180523,,,A*76


$GNGGA,050856.200,4053.7405,N,11757.3415,E,1,07,4.1,319.4,M,-3.2,M,,0000*5D
$GNGLL,4053.7405,N,11757.3415,E,050856.200,A,A*49
$GNGSA,A,3,17,03,19,01,24,,,,,,,,4.6,4.1,2.1*22
$GNGSA,A,3,212,210,,,,,,,,,,,4.6,4.1,2.1*2A
$GNRMC,050856.200,A,4053.7405,N,11757.3415,E,000.8,177.9,180523,,,A*73
$GNVTG,177.9,T,,M,000.8,N,001.5,K,A*17
$GNZDA,050856.200,18,05,2023,00,00*4B


$GNGGA,050856.400,4053.7405,N,11757.3415,E,1,07,4.1,319.4,M,-3.2,M,,0000*5B
$GNRMC,050856.400,A,4053.7405,N,11757.3415,E,000.0,177.9,180523,,,A*7D


$GNGGA,050856.600,4053.7405,N,11757.3415,E,1,07,4.1,319.4,M,-3.2,M,,0000*59
$GNRMC,050856.600,A,4053.7405,N,11757.3415,E,000.0,177.9,180523,,,A*7F


$GNGGA,050856.800,4053.7405,N,11757.3415,E,1,07,4.1,319.4,M,-3.2,M,,0000*57
$GNRMC,050856.800,A,4053.7405,N,11757.3415,E,000.0,177.9,180523,,,A*71


$GNGGA,050857.000,4053.7405,N,11757.3415,E,1,07,4.1,319.4,M,-3.2,M,,0000*5E
$GNRMC,050857.000,A,4053.7405,N,11757.3415,E,000.0,177.9,180523,,,A*78


$GNGGA,050857.200,4053.7405,N,11757.3415,E,1,07,4.1,319.4,M,-3.2,M,,0000*5C
$GNGLL,4053.7405,N,11757.3415,E,050857.200,A,A*48
$GNGSA,A,3,17,03,19,01,24,,,,,,,,4.6,4.1,2.1*22
$GNGSA,A,3,212,210,,,,,,,,,,,4.6,4.1,2.1*2A
$GNRMC,050857.200,A,4053.7405,N,11757.3415,E,000.0,177.9,180523,,,A*7A
$GNVTG,177.9,T,,M,000.0,N,000.0,K,A*1B
$GNZDA,050857.200,18,05,2023,00,00*4A


$GNGGA,050857.400,4053.7402,N,11757.3416,E,1,07,4.1,318.7,M,-3.2,M,,0000*5C
$GNRMC,050857.400,A,4053.7402,N,11757.3416,E,000.9,181.4,180523,,,A*75


$GNGGA,050857.600,4053.7401,N,11757.3416,E,1,07,4.1,318.5,M,-3.2,M,,0000*5F
$GNRMC,050857.600,A,4053.7401,N,11757.3416,E,001.0,180.3,180523,,,A*7A


$GNGGA,050857.800,4053.7400,N,11757.3416,E,1,07,4.1,318.3,M,-3.2,M,,0000*56
$GNRMC,050857.800,A,4053.7400,N,11757.3416,E,001.0,178.4,180523,,,A*75


$GNGGA,050858.000,4053.7400,N,11757.3416,E,1,07,4.1,318.3,M,-3.2,M,,0000*51
$GNRMC,050858.000,A,4053.7400,N,11757.3416,E,000.0,178.4,180523,,,A*73


$GNGGA,050858.200,4053.7400,N,11757.3416,E,1,07,4.1,318.3,M,-3.2,M,,0000*53
$GNGLL,4053.7400,N,11757.3416,E,050858.200,A,A*41
$GNGSA,A,3,17,03,19,01,24,,,,,,,,4.6,4.1,2.1*22
$GNGSA,A,3,212,210,,,,,,,,,,,4.6,4.1,2.1*2A
$GPGSV,2,1,06,17,74,019,42,19,58,316,38,03,47,068,39,01,18,055,44*71
$GPGSV,2,2,06,11,08,243,20,24,07,298,38*79
$BDGSV,1,1,02,210,78,275,25,212,46,293,35*6C
$GNRMC,050858.200,A,4053.7400,N,11757.3416,E,000.0,178.4,180523,,,A*71
$GNVTG,178.4,T,,M,000.0,N,000.0,K,A*19
$GNZDA,050858.200,18,05,2023,00,00*45
$GNGGA,050858.400,4053.7398,N,11757.3416,E,1,07,4.1,317.9,M,-3.2,M,J

0*56
$GNRMC,050858.400,A,4053.7398,N,11757.3416,E,001.0,172.9,180523,,,A*77


$GNGGA,050858.600,4053.7397,N,11757.3416,E,1,07,4.1,317.8,M,-3.2,M,,0000*5A
$GNRMC,050858.600,A,4053.7397,N,11757.3416,E,000.9,174.6,180523,,,A*7B


$GNGGA,050858.800,4053.7397,N,11757.3416,E,1,07,4.1,317.6,M,-3.2,M,,0000*5A
$GNRMC,050858.800,A,4053.7397,N,11757.3416,E,001.0,177.7,180523,,,A*7F


$GNGGA,050859.000,4053.7396,N,11757.3416,E,1,06,6.4,317.4,M,-3.2,M,,0000*56
$GNRMC,050859.000,A,4053.7396,N,11757.3416,E,000.9,175.0,180523,,,A*7A


$GNGGA,050859.200,4053.7395,N,11757.3416,E,1,06,6.4,317.3,M,-3.2,M,,0000*50
$GNGLL,4053.7395,N,11757.3416,E,050859.200,A,A*4B
$GNGSA,A,3,17,03,19,01,24,,,,,,,,6.8,6.4,2.4*2C
$GNGSA,A,3,212,,,,,,,,,,,,6.8,6.4,2.4*17
$GNRMC,050859.200,A,4053.7395,N,11757.3416,E,000.9,179.6,180523,,,A*71
$GNVTG,179.6,T,,M,000.9,N,001.6,K,A*14
$GNZDA,050859.200,18,05,2023,00,00*44


$GNGGA,050859.400,4053.7395,N,11757.3416,E,1,06,6.4,317.3,M,-3.2,M,,0000*56
$GNRMC,050859.400,A,4053.7395,N,11757.3416,E,000.0,179.6,180523,,,A*7E


$GNGGA,050859.600,4053.7395,N,11757.3416,E,1,06,6.4,317.3,M,-3.2,M,,0000*54
$GNRMC,050859.600,A,4053.7395,N,11757.3416,E,000.0,179.6,180523,,,A*7C


$GNGGA,050859.800,4053.7393,N,11757.3416,E,1,07,4.1,317.0,M,-3.2,M,,0000*59
$GNRMC,050859.800,A,4053.7393,N,11757.3416,E,000.0,179.6,180523,,,A*74


$GNGGA,050900.000,4053.7393,N,11757.3416,E,1,07,4.1,317.0,M,-3.2,M,,0000*5C
$GNRMC,050900.000,A,4053.7393,N,11757.3416,E,000.0,179.6,180523,,,A*71


$GNGGA,050900.200,4053.7393,N,11757.3416,E,1,07,4.1,317.0,M,-3.2,M,,0000*5E
$GNGLL,4053.7393,N,11757.3416,E,050900.200,A,A*40
$GNGSA,A,3,17,03,19,01,24,,,,,,,,4.6,4.1,2.1*22
$GNGSA,A,3,212,210,,,,,,,,,,,4.6,4.1,2.1*2A
$GNRMC,050900.200,A,4053.7393,N,11757.3416,E,000.0,179.6,180523,,,A*73
$GNVTG,179.6,T,,M,000.0,N,000.0,K,A*1A
$GNZDA,050900.200,18,05,2023,00,00*49


$GNGGA,050900.400,4053.7393,N,11757.3416,E,1,07,4.1,317.0,M,-3.2,M,,0000*58
$GNRMC,050900.400,A,4053.7393,N,11757.3416,E,000.0,179.6,180523,,,A*75


$GNGGA,050900.600,4053.7393,N,11757.3416,E,1,07,4.1,317.0,M,-3.2,M,,0000*5A
$GNRMC,050900.600,A,4053.7393,N,11757.3416,E,000.0,179.6,180523,,,A*77


$GNGGA,050900.800,4053.7393,N,11757.3416,E,1,07,4.1,317.0,M,-3.2,M,,0000*54
$GNRMC,050900.800,A,4053.7393,N,11757.3416,E,000.0,179.6,180523,,,A*79


$GNGGA,050901.000,4053.7393,N,11757.3416,E,1,07,4.1,317.0,M,-3.2,M,,0000*5D
$GNRMC,050901.000,A,4053.7393,N,11757.3416,E,000.0,179.6,180523,,,A*70


$GNGGA,050901.200,4053.7393,N,11757.3416,E,1,07,4.1,317.0,M,-3.2,M,,0000*5F
$GNGLL,4053.7393,N,11757.3416,E,050901.200,A,A*41
$GNGSA,A,3,17,03,19,01,24,,,,,,,,4.6,4.1,2.1*22
$GNGSA,A,3,212,210,,,,,,,,,,,4.6,4.1,2.1*2A
$GPGSV,2,1,06,17,74,019,42,19,58,316,39,03,47,068,40,01,18,055,46*7C
$GPGSV,2,2,06,11,08,243,26,24,07,298,37*70
$BDGSV,1,1,02,210,78,275,23,212,46,293,35*6A
$GNRMC,050901.200,A,4053.7393,N,11757.3416,E,000.0,179.6,180523,,,A*72
$GNVTG,179.6,T,,M,000.0,N,000.0,K,A*1A
$GNZDA,050901.200,18,05,2023,00,00*48
$GNGGA,050901.400,4053.7393,N,11757.3416,E,1,07,4.1,317.0,M,-3.2,M,J

0*59
$GNRMC,050901.400,A,4053.7393,N,11757.3416,E,000.0,179.6,180523,,,A*74


$GNGGA,050901.600,4053.7393,N,11757.3416,E,1,07,4.1,317.0,M,-3.2,M,,0000*5B
$GNRMC,050901.600,A,4053.7393,N,11757.3416,E,000.0,179.6,180523,,,A*76


$GNGGA,050901.800,4053.7393,N,11757.3416,E,1,07,4.1,317.0,M,-3.2,M,,0000*55
$GNRMC,050901.800,A,4053.7393,N,11757.3416,E,000.0,179.6,180523,,,A*78


$GNGGA,050902.000,4053.7393,N,11757.3416,E,1,07,4.1,317.0,M,-3.2,M,,0000*5E
$GNRMC,050902.000,A,4053.7393,N,11757.3416,E,000.0,179.6,180523,,,A*73


$GNGGA,050902.200,4053.7393,N,11757.3416,E,1,07,4.1,317.0,M,-3.2,M,,0000*5C
$GNGLL,4053.7393,N,11757.3416,E,050902.200,A,A*42
$GNGSA,A,3,17,03,19,01,24,,,,,,,,4.6,4.1,2.1*22
$GNGSA,A,3,212,210,,,,,,,,,,,4.6,4.1,2.1*2A
$GNRMC,050902.200,A,4053.7393,N,11757.3416,E,000.0,179.6,180523,,,A*71
$GNVTG,179.6,T,,M,000.0,N,000.0,K,A*1A
$GNZDA,050902.200,18,05,2023,00,00*4B


$GNGGA,050902.400,4053.7393,N,11757.3416,E,1,07,4.1,317.0,M,-3.2,M,,0000*5A
$GNRMC,050902.400,A,4053.7393,N,11757.3416,E,000.0,179.6,180523,,,A*77


$GNGGA,050902.600,4053.7393,N,11757.3416,E,1,07,4.1,317.0,M,-3.2,M,,0000*58
$GNRMC,050902.600,A,4053.7393,N,11757.3416,E,000.0,179.6,180523,,,A*75


$GNGGA,050902.800,4053.7393,N,11757.3416,E,1,07,4.1,317.0,M,-3.2,M,,0000*56
$GNRMC,050902.800,A,4053.7393,N,11757.3416,E,000.0,179.6,180523,,,A*7B


$GNGGA,050903.000,4053.7393,N,11757.3416,E,1,07,4.1,317.0,M,-3.2,M,,0000*5F
$GNRMC,050903.000,A,4053.7393,N,11757.3416,E,000.0,179.6,180523,,,A*72


$GNGGA,050903.200,4053.7393,N,11757.3416,E,1,07,4.1,317.0,M,-3.2,M,,0000*5D
$GNGLL,4053.7393,N,11757.3416,E,050903.200,A,A*43
$GNGSA,A,3,17,03,19,01,24,,,,,,,,4.6,4.1,2.1*22
$GNGSA,A,3,212,210,,,,,,,,,,,4.6,4.1,2.1*2A
$GNRMC,050903.200,A,4053.7393,N,11757.3416,E,000.0,179.6,180523,,,A*70
$GNVTG,179.6,T,,M,000.0,N,000.0,K,A*1A
$GNZDA,050903.200,18,05,2023,00,00*4A


$GNGGA,050903.400,4053.7393,N,11757.3416,E,1,07,4.1,317.0,M,-3.2,M,,0000*5B
$GNRMC,050903.400,A,4053.7393,N,11757.3416,E,000.0,179.6,180523,,,A*76


$GNGGA,050903.600,4053.7393,N,11757.3416,E,1,07,4.1,317.0,M,-3.2,M,,0000*59
$GNRMC,050903.600,A,4053.7393,N,11757.3416,E,000.0,179.6,180523,,,A*74


$GNGGA,050903.800,4053.7393,N,11757.3416,E,1,07,4.1,317.0,M,-3.2,M,,0000*57
$GNRMC,050903.800,A,4053.7393,N,11757.3416,E,000.0,179.6,180523,,,A*7A


$GNGGA,050904.000,4053.7393,N,11757.3416,E,1,07,4.1,317.0,M,-3.2,M,,0000*58
$GNRMC,050904.000,A,4053.7393,N,11757.3416,E,000.0,179.6,180523,,,A*75


$GNGGA,050904.200,4053.7393,N,11757.3416,E,1,07,4.1,317.0,M,-3.2,M,,0000*5A
$GNGLL,4053.7393,N,11757.3416,E,050904.200,A,A*44
$GNGSA,A,3,17,03,19,01,24,,,,,,,,4.6,4.1,2.1*22
$GNGSA,A,3,212,210,,,,,,,,,,,4.6,4.1,2.1*2A
$GPGSV,2,1,06,17,74,019,34,19,58,316,41,03,47,068,40,01,18,055,45*71
$GPGSV,2,2,06,11,08,243,24,24,07,298,33*76
$BDGSV,1,1,02,210,78,275,24,212,46,293,32*6A
$GNRMC,050904.200,A,4053.7393,N,11757.3416,E,000.0,179.6,180523,,,A*77
$GNVTG,179.6,T,,M,000.0,N,000.0,K,A*1A
$GNZDA,050904.200,18,05,2023,00,00*4D
$GNGGA,050904.400,4053.7393,N,11757.3416,E,1,07,4.1,317.0,M,-3.2,M,J

0*5C
$GNRMC,050904.400,A,4053.7393,N,11757.3416,E,000.0,179.6,180523,,,A*71


$GNGGA,050904.600,4053.7393,N,11757.3416,E,1,07,4.1,317.0,M,-3.2,M,,0000*5E
$GNRMC,050904.600,A,4053.7393,N,11757.3416,E,000.0,179.6,180523,,,A*73


$GNGGA,050904.800,4053.7332,N,11757.3415,E,1,07,4.1,315.6,M,-3.2,M,,0000*5C
$GNRMC,050904.800,A,4053.7332,N,11757.3415,E,001.3,076.5,180523,,,A*7A


$GNGGA,050905.000,4053.7332,N,11757.3415,E,1,07,4.5,315.3,M,-3.2,M,,0000*54
$GNRMC,050905.000,A,4053.7332,N,11757.3415,E,001.2,142.6,180523,,,A*77


$GNGGA,050905.200,4053.7332,N,11757.3416,E,1,07,6.3,315.3,M,-3.2,M,,0000*51
$GNGLL,4053.7332,N,11757.3416,E,050905.200,A,A*4E
$GNGSA,A,3,17,03,01,19,24,,,,,,,,7.6,6.3,4.2*24
$GNGSA,A,3,212,210,,,,,,,,,,,7.6,6.3,4.2*2C
$GNRMC,050905.200,A,4053.7332,N,11757.3416,E,001.1,123.9,180523,,,A*7D
$GNVTG,123.9,T,,M,001.1,N,002.0,K,A*18
$GNZDA,050905.200,18,05,2023,00,00*4C


$GNGGA,050905.400,4053.7332,N,11757.3416,E,1,07,4.6,315.1,M,-3.2,M,,0000*52
$GNRMC,050905.400,A,4053.7332,N,11757.3416,E,000.0,123.9,180523,,,A*7B


$GNGGA,050905.600,4053.7332,N,11757.3414,E,1,06,9.6,315.0,M,-3.2,M,,0000*5F
$GNRMC,050905.600,A,4053.7332,N,11757.3414,E,002.7,260.7,180523,,,A*74


$GNGGA,050905.800,4053.7333,N,11757.3412,E,1,06,9.6,315.0,M,-3.2,M,,0000*56
$GNRMC,050905.800,A,4053.7333,N,11757.3412,E,000.0,260.7,180523,,,A*78


$GNGGA,050906.000,4053.7333,N,11757.3412,E,1,04,9.6,315.0,M,-3.2,M,,0000*5F
$GNRMC,050906.000,A,4053.7333,N,11757.3412,E,000.0,260.7,180523,,,A*73


$GNGGA,050906.200,4053.7333,N,11757.3412,E,1,04,9.6,315.0,M,-3.2,M,,0000*5D
$GNGLL,4053.7333,N,11757.3412,E,050906.200,A,A*48
$GNGSA,A,3,17,19,01,,,,,,,,,,10.4,9.6,3.9*13
$GNGSA,A,3,212,,,,,,,,,,,,10.4,9.6,3.9*2D
$GNRMC,050906.200,A,4053.7333,N,11757.3412,E,000.0,260.7,180523,,,A*71
$GNVTG,260.7,T,,M,000.0,N,000.0,K,A*10
$GNZDA,050906.200,18,05,2023,00,00*4F


$GNGGA,050906.400,4053.7333,N,11757.3412,E,1,04,9.6,315.0,M,-3.2,M,,0000*5B
$GNRMC,050906.400,A,4053.7333,N,11757.3412,E,000.0,260.7,180523,,,A*77


$GNGGA,050906.600,4053.7333,N,11757.3412,E,0,00,99.9,315.0,M,-3.2,M,,0000*6A
$GNRMC,050906.600,V,4053.7333,N,11757.3412,E,000.0,260.7,180523,,,N*6D


$GNGGA,050906.800,4053.7352,N,11757.3429,E,1,05,9.6,315.0,M,-3.2,M,,0000*59
$GNRMC,050906.800,A,4053.7352,N,11757.3429,E,000.0,260.7,180523,,,A*74


$GNGGA,050907.000,4053.7333,N,11757.3412,E,1,06,9.6,315.0,M,-3.2,M,,0000*5C
$GNRMC,050907.000,A,4053.7333,N,11757.3412,E,001.2,261.8,180523,,,A*7F


$GNGGA,050907.200,4053.7333,N,11757.3411,E,1,06,9.6,315.0,M,-3.2,M,,0000*5D
$GNGLL,4053.7333,N,11757.3411,E,050907.200,A,A*4A
$GNGSA,A,3,17,19,01,24,03,,,,,,,,10.1,9.6,3.1*1B
$GNGSA,A,3,212,,,,,,,,,,,,10.1,9.6,3.1*20
$GPGSV,2,1,06,17,74,019,28,19,58,316,34,03,47,068,27,01,18,055,36*7B
$GPGSV,2,2,06,11,08,243,21,24,07,298,31*71
$BDGSV,1,1,02,210,78,275,20,212,46,293,23*6E
$GNRMC,050907.200,A,4053.7333,N,11757.3411,E,001.1,259.1,180523,,,A*7F
$GNVTG,259.1,T,,M,001.1,N,002.1,K,A*1F
$GNZDA,050907.200,18,05,2023,00,00*4E
$GNGGA,050907.400,4053.7333,N,11757.3410,E,1,06,9.6,315.0,M,-3.2,M,,J

*5A
$GNRMC,050907.400,A,4053.7333,N,11757.3410,E,001.4,258.5,180523,,,A*78


$GNGGA,050907.600,4053.7333,N,11757.3410,E,1,05,9.6,315.0,M,-3.2,M,,0000*5B
$GNRMC,050907.600,A,4053.7333,N,11757.3410,E,001.4,258.5,180523,,,A*7A


$GNGGA,050907.800,4053.7333,N,11757.3409,E,1,06,9.6,315.0,M,-3.2,M,,0000*5E
$GNRMC,050907.800,A,4053.7333,N,11757.3409,E,000.9,266.6,180523,,,A*7E


$GNGGA,050908.000,4053.7333,N,11757.3409,E,1,06,9.6,315.0,M,-3.2,M,,0000*59
$GNRMC,050908.000,A,4053.7333,N,11757.3409,E,000.0,266.6,180523,,,A*70


$GNGGA,050908.200,4053.7333,N,11757.3408,E,1,06,9.6,315.0,M,-3.2,M,,0000*5A
$GNGLL,4053.7333,N,11757.3408,E,050908.200,A,A*4D
$GNGSA,A,3,17,19,01,24,03,,,,,,,,10.1,9.6,3.1*1B
$GNGSA,A,3,212,,,,,,,,,,,,10.1,9.6,3.1*20
$GNRMC,050908.200,A,4053.7333,N,11757.3408,E,000.0,266.6,180523,,,A*73
$GNVTG,266.6,T,,M,000.0,N,000.0,K,A*17
$GNZDA,050908.200,18,05,2023,00,00*41


$GNGGA,050908.400,4053.7333,N,11757.3408,E,1,05,9.6,315.0,M,-3.2,M,,0000*5F
$GNRMC,050908.400,A,4053.7333,N,11757.3408,E,000.0,266.6,180523,,,A*75


$GNGGA,050908.600,4053.7333,N,11757.3408,E,1,06,9.6,314.9,M,-3.2,M,,0000*56
$GNRMC,050908.600,A,4053.7333,N,11757.3408,E,000.0,266.6,180523,,,A*77


$GNGGA,050908.800,4053.7334,N,11757.3408,E,1,06,9.6,314.7,M,-3.2,M,,0000*51
$GNRMC,050908.800,A,4053.7334,N,11757.3408,E,001.3,045.3,180523,,,A*7A


$GNGGA,050909.000,4053.7335,N,11757.3409,E,1,06,5.3,314.7,M,-3.2,M,,0000*51
$GNRMC,050909.000,A,4053.7335,N,11757.3409,E,001.4,034.3,180523,,,A*72


$GNGGA,050909.200,4053.7339,N,11757.3408,E,1,06,7.0,314.7,M,-3.2,M,,0000*5F
$GNGLL,4053.7339,N,11757.3408,E,050909.200,A,A*46
$GNGSA,A,3,01,24,17,19,03,,,,,,,,7.1,7.0,1.0*26
$GNGSA,A,3,212,,,,,,,,,,,,7.1,7.0,1.0*1D
$GNRMC,050909.200,A,4053.7339,N,11757.3408,E,002.0,007.4,180523,,,A*7D
$GNVTG,007.4,T,,M,002.0,N,003.8,K,A*19
$GNZDA,050909.200,18,05,2023,00,00*40


$GNGGA,050909.400,4053.7346,N,11757.3406,E,1,06,7.0,314.6,M,-3.2,M,,0000*5E
$GNRMC,050909.400,A,4053.7346,N,11757.3406,E,002.4,000.3,180523,,,A*79


$GNGGA,050909.600,4053.7349,N,11757.3404,E,1,06,7.0,314.6,M,-3.2,M,,0000*51
$GNRMC,050909.600,A,4053.7349,N,11757.3404,E,003.0,354.5,180523,,,A*77


$GNGGA,050909.800,4053.7354,N,11757.3403,E,1,06,7.0,314.6,M,-3.2,M,,0000*54
$GNRMC,050909.800,A,4053.7354,N,11757.3403,E,003.9,350.6,180523,,,A*7C


$GNGGA,050910.000,4053.7354,N,11757.3403,E,1,06,7.0,314.6,M,-3.2,M,,0000*54
$GNRMC,050910.000,A,4053.7354,N,11757.3403,E,003.9,350.6,180523,,,A*7C


$GNGGA,050910.200,4053.7354,N,11757.3403,E,1,06,7.0,314.6,M,-3.2,M,,0000*56
$GNGLL,4053.7354,N,11757.3403,E,050910.200,A,A*4E
$GNGSA,A,3,01,24,17,19,03,,,,,,,,7.1,7.0,1.0*26
$GNGSA,A,3,212,,,,,,,,,,,,7.1,7.0,1.0*1D
$GPGSV,2,1,06,17,74,019,19,19,58,316,25,03,47,068,22,01,18,055,27*7C
$GPGSV,2,2,06,11,08,243,17,24,07,298,24*70
$BDGSV,1,1,02,210,78,275,18,212,46,293,19*6C
$GNRMC,050910.200,A,4053.7354,N,11757.3403,E,003.9,350.6,180523,,,A*7E
$GNVTG,350.6,T,,M,003.9,N,007.2,K,A*1C
$GNZDA,050910.200,18,05,2023,00,00*48
$GNGGA,050910.400,4053.7354,N,11757.3403,E,1,06,7.0,314.6,M,-3.2,M,,00J

*50
$GNRMC,050910.400,A,4053.7354,N,11757.3403,E,003.9,350.6,180523,,,A*78


$GNGGA,050910.600,4053.7370,N,11757.3412,E,1,05,7.0,314.6,M,-3.2,M,,0000*57
$GNRMC,050910.600,A,4053.7370,N,11757.3412,E,003.9,350.6,180523,,,A*7C


$GNGGA,050910.800,4053.7370,N,11757.3407,E,1,05,7.0,314.6,M,-3.2,M,,0000*5D
$GNRMC,050910.800,A,4053.7370,N,11757.3407,E,003.9,350.6,180523,,,A*76


$GNGGA,050911.000,4053.7367,N,11757.3408,E,1,05,7.0,314.6,M,-3.2,M,,0000*5D
$GNRMC,050911.000,A,4053.7367,N,11757.3408,E,003.9,350.6,180523,,,A*76


$GNGGA,050911.200,4053.7361,N,11757.3409,E,1,05,7.0,314.6,M,-3.2,M,,0000*58
$GNGLL,4053.7361,N,11757.3409,E,050911.200,A,A*43
$GPGSA,A,3,17,19,03,01,24,,,,,,,,7.1,7.0,1.0*38
$GNRMC,050911.200,A,4053.7361,N,11757.3409,E,003.9,350.6,180523,,,A*73
$GNVTG,350.6,T,,M,003.9,N,007.2,K,A*1C
$GNZDA,050911.200,18,05,2023,00,00*49


$GNGGA,050911.400,4053.7363,N,11757.3417,E,1,05,7.0,314.6,M,-3.2,M,,0000*53
$GNRMC,050911.400,A,4053.7363,N,11757.3417,E,003.9,350.6,180523,,,A*78


$GNGGA,050911.600,4053.7366,N,11757.3408,E,1,05,7.0,314.6,M,-3.2,M,,0000*5A
$GNRMC,050911.600,A,4053.7366,N,11757.3408,E,003.9,350.6,180523,,,A*71


$GNGGA,050911.800,4053.7357,N,11757.3421,E,1,05,7.0,314.6,M,-3.2,M,,0000*5D
$GNRMC,050911.800,A,4053.7357,N,11757.3421,E,003.9,350.6,180523,,,A*76


$GNGGA,050912.000,4053.7355,N,11757.3413,E,1,05,7.0,314.6,M,-3.2,M,,0000*55
$GNRMC,050912.000,A,4053.7355,N,11757.3413,E,003.9,350.6,180523,,,A*7E


$GNGGA,050912.200,4053.7354,N,11757.3403,E,0,00,99.9,314.6,M,-3.2,M,,0000*6D
$GNGLL,4053.7354,N,11757.3403,E,050912.200,V,N*54
$GNGSA,A,1,,,,,,,,,,,,,99.9,99.9,99.9*17
$GNRMC,050912.200,V,4053.7354,N,11757.3403,E,003.9,350.6,180523,,,N*64
$GNVTG,350.6,T,,M,003.9,N,007.2,K,N*13
$GNZDA,050912.200,18,05,2023,00,00*4A


$GNGGA,050912.400,4053.7354,N,11757.3403,E,0,00,99.9,314.6,M,-3.2,M,,0000*6B
$GNRMC,050912.400,V,4053.7354,N,11757.3403,E,003.9,350.6,180523,,,N*62


$GNGGA,050912.600,4053.7354,N,11757.3403,E,0,00,99.9,314.6,M,-3.2,M,,0000*69
$GNRMC,050912.600,V,4053.7354,N,11757.3403,E,003.9,350.6,180523,,,N*60


$GNGGA,050912.800,4053.7354,N,11757.3403,E,0,00,99.9,314.6,M,-3.2,M,,0000*67
$GNRMC,050912.800,V,4053.7354,N,11757.3403,E,003.9,350.6,180523,,,N*6E


$GNGGA,050913.000,4053.7364,N,11757.3420,E,1,05,7.0,314.6,M,-3.2,M,,0000*56
$GNRMC,050913.000,A,4053.7364,N,11757.3420,E,003.9,350.6,180523,,,A*7D


$GNGGA,050913.200,4053.7369,N,11757.3419,E,1,05,7.0,314.6,M,-3.2,M,,0000*53
$GNGLL,4053.7369,N,11757.3419,E,050913.200,A,A*48
$GPGSA,A,3,17,19,03,01,24,,,,,,,,7.1,7.0,1.0*38
$GPGSV,2,1,06,17,74,019,19,19,58,316,22,03,47,068,18,01,18,055,23*76
$GPGSV,2,2,06,11,08,243,16,24,07,298,20*75
$BDGSV,1,1,02,210,78,275,17,212,46,293,17*6D
$GNRMC,050913.200,A,4053.7369,N,11757.3419,E,003.9,350.6,180523,,,A*78
$GNVTG,350.6,T,,M,003.9,N,007.2,K,A*1C
$GNZDA,050913.200,18,05,2023,00,00*4B
$GNGGA,050913.400,4053.7357,N,11757.3414,E,1,05,7.0,314.6,M,-3.2,M,,0000*55
$GNRMC,050913.400,A,4053.7357,N,117J

414,E,003.9,350.6,180523,,,A*7E


$GNGGA,050913.600,4053.7361,N,11757.3405,E,1,05,7.0,314.6,M,-3.2,M,,0000*52
$GNRMC,050913.600,A,4053.7361,N,11757.3405,E,003.9,350.6,180523,,,A*79


$GNGGA,050913.800,4053.7360,N,11757.3411,E,1,05,7.0,314.6,M,-3.2,M,,0000*58
$GNRMC,050913.800,A,4053.7360,N,11757.3411,E,003.9,350.6,180523,,,A*73


$GNGGA,050914.000,4053.7354,N,11757.3403,E,0,00,99.9,314.6,M,-3.2,M,,0000*69
$GNRMC,050914.000,V,4053.7354,N,11757.3403,E,003.9,350.6,180523,,,N*60


$GNGGA,050914.200,4053.7354,N,11757.3403,E,0,00,99.9,314.6,M,-3.2,M,,0000*6B
$GNGLL,4053.7354,N,11757.3403,E,050914.200,V,N*52
$GNGSA,A,1,,,,,,,,,,,,,99.9,99.9,99.9*17
$GNRMC,050914.200,V,4053.7354,N,11757.3403,E,003.9,350.6,180523,,,N*62
$GNVTG,350.6,T,,M,003.9,N,007.2,K,N*13
$GNZDA,050914.200,18,05,2023,00,00*4C


$GNGGA,050914.400,4053.7354,N,11757.3403,E,0,00,99.9,314.6,M,-3.2,M,,0000*6D
$GNRMC,050914.400,V,4053.7354,N,11757.3403,E,003.9,350.6,180523,,,N*64


